stop_id,stop_code,stop_name,stop_desc,stop_lat,stop_lon,zone_id,stop_url,location_type,parent_station
393,ARART0,"Art-sur-Meurthe",,48.658654,6.269341,,,0,
1393,ARART1,"Art-sur-Meurthe",,48.658518,6.269140,,,0,
390,ARBOS0,"Bosserville",,48.663584,6.241792,,,0,
1390,ARBOS1,"Bosserville",,48.661567,6.241284,,,0,
2813,ARBOS2,"Art-sur-Meurthe - Bosserville",,48.662562,6.245954,,,0,
663,ARCHA0,"Chartreuse",,48.661844,6.247694,,,0,
1663,ARCHA1,"Chartreuse",,48.661929,6.247941,,,0,
395,ARHUI0,"18 juin",,48.656201,6.265200,,,0,
394,ARMAI0,"Art-sur-Meurthe - Mairie",,48.655628,6.265260,,,0,
389,ARNPL0,"Napoléon",,48.666569,6.235481,,,0,
1389,ARNPL1,"Napoléon",,48.668358,6.233067,,,0,
392,ARRLN0,"Art-sur-Meurthe - Château",,48.657834,6.262142,,,0,
1392,ARRLN1,"Art-sur-Meurthe - Château",,48.657812,6.262090,,,0,
391,ARTIR0,"Repentir",,48.661533,6.255007,,,0,
1391,ARTIR1,"Repentir",,48.661527,6.254807,,,0,
488,DMDOM0,"Dommartemont",,48.711155,6.209617,,,0,
1488,DMDOM1,"Dommartemont",,48.711225,6.209296,,,0,
482,ESALT0,"Alouettes",,48.710338,6.219629,,,0,
1482,ESALT1,"Alouettes",,48.710236,6.219583,,,0,
502,ESBCH0,"Bois Châtel",,48.712407,6.222405,,,0,
1502,ESBCH1,"Bois Châtel",,48.712749,6.221914,,,0,
1505,ESBOP0,"Beaupré",,48.716871,6.221739,,,0,
26,ESBRI0,"Clinique Pasteur",,48.703265,6.217413,,,0,
1026,ESBRI1,"Clinique Pasteur",,48.703053,6.216442,,,0,
783,ESBUR0,"La Bure",,48.715761,6.222371,,,0,
707,ESCES0,"Essey Emile Gallé",,48.700117,6.220730,,,0,
1707,ESCES1,"Emile Gallée",,48.700722,6.222624,,,0,
503,ESCHL0,"Chanoine Laurent",,48.707545,6.219165,,,0,
1503,ESCHL1,"Chanoine Laurent",,48.706896,6.219319,,,0,
471,ESCLM0,"Joseph Huet",,48.701598,6.206022,,,0,
1471,ESCLM1,"Joseph Huet",,48.701692,6.206014,,,0,
415,ESCLN0,"Colonies",,48.707415,6.234826,,,0,
1415,ESCLN1,"Colonies",,48.707087,6.234294,,,0,
430,ESCSR0,"Quartier Kléber",,48.703711,6.230219,,,0,
504,ESFAL1,"Essey La Fallée",,48.710558,6.221891,,,0,
1504,ESFAL2,"Essey La Fallée",,48.710043,6.221368,,,0,
2044,ESFAL3,"Essey La Fallée",,48.709919,6.220229,,,0,
414,ESFYR0,"Edith Piaf",,48.708933,6.238753,,,0,
1414,ESFYR1,"Edith Piaf",,48.709123,6.239431,,,0,
799,ESGRI0,"Grives",,48.710556,6.220806,,,0,
416,ESKLB0,"69ème RI",,48.705504,6.230237,,,0,
1416,ESKLB1,"69ème RI",,48.705418,6.230275,,,0,
739,ESKLE0,"Quartier Kléber",,48.703506,6.229973,,,0,
2039,ESMET0,"Mère Térésa",,48.704437,6.227382,,,0,
3039,ESMET1,"Mère Térésa",,48.704180,6.227441,,,0,
28,ESMZM0,"Essey Mouzimpré",,48.701179,6.224760,,,0,
1028,ESMZM3,"Essey Mouzimpré",,48.701711,6.224781,,,0,
1670,ESMZM6,"Mouzimpré",,48.701835,6.224848,,,0,
1461,ESMZM7,"Mouzimpré",,48.701593,6.225725,,,0,
755,ESONC0,"Tronc qui fume",,48.708985,6.243775,,,0,
1755,ESONC1,"Tronc qui fume",,48.709125,6.244073,,,0,
501,ESOPP0,"Oppidum",,48.713967,6.221268,,,0,
1501,ESOPP1,"Oppidum",,48.713841,6.221591,,,0,
628,ESPCT2,"Essey Mairie",,48.705158,6.222206,,,0,
27,ESROO0,"Essey Roosevelt",,48.704399,6.221129,,,0,
612,ESROO1,"Essey Roosevelt",,48.704002,6.221165,,,0,
1027,ESROO2,"Essey Roosevelt",,48.703713,6.220981,,,0,
429,ESSBL0,"Porte Verte",,48.706853,6.245049,,,0,
1429,ESSBL1,"Essey Porte Verte",,48.705077,6.245623,,,0,
1960,ESSBL2,"Porte Verte",,48.704498,6.246682,,,0,
500,ESSOL0,"Plein Soleil",,48.715501,6.221296,,,0,
483,ESTAM0,"Essey Tamaris",,48.710566,6.218486,,,0,
1483,ESTAM1,"Essey Tamaris",,48.710440,6.218423,,,0,
261,FLAUT0,"Champs Moyen",,48.617551,6.203450,,,0,
1261,FLAUT1,"Champs Moyen",,48.617663,6.203467,,,0,
675,FLCAD0,"Ader",,48.612593,6.184993,,,0,
1937,FLCAD1,"Ader",,48.612637,6.185293,,,0,
176,FLCHT0,"Château",,48.625632,6.203237,,,0,
1176,FLCHT1,"Château",,48.625673,6.203133,,,0,
178,FLCSL0,"Croix du Soldat",,48.628284,6.207399,,,0,
1178,FLCSL1,"Croix du Soldat",,48.629202,6.208347,,,0,
674,FLDSC0,"Descartes",,48.613147,6.182201,,,0,
1938,FLDSC1,"Descartes",,48.612977,6.182811,,,0,
463,FLDUC0,"Ducret",,48.623501,6.202245,,,0,
262,FLEFF0,"Eiffel",,48.612237,6.197002,,,0,
1262,FLEFF1,"Eiffel",,48.612389,6.197479,,,0,
175,FLFLR0,"Fleurychamp",,48.623231,6.199073,,,0,
3806,FLHFL0,"Haut de Fléville",,48.624324,6.191391,,,0,
177,FLMAI0,"Fléville Mairie",,48.626319,6.206192,,,0,
1177,FLMAI1,"Fléville Mairie",,48.625868,6.205991,,,0,
260,FLNOU0,"FLEVILLE",,48.621515,6.202250,,,0,
1260,FLNOU1,"FLEVILLE",,48.621523,6.202314,,,0,
179,FLOBO0,"L'Orée du Bois",,48.643908,6.210336,,,0,
1179,FLOBO1,"L'Orée du Bois",,48.644034,6.210367,,,0,
673,FLPST0,"Pasteur",,48.615028,6.181276,,,0,
1959,FLPST1,"Pasteur",,48.615118,6.181412,,,0,
265,FLZIN0,"Fresnel",,48.615150,6.190602,,,0,
326,HDCCO0,"Houdemont Porte Sud",,48.637408,6.185355,,,0,
1326,HDCCO1,"Houdemont Porte Sud",,48.637414,6.184987,,,0,
2326,HDCCO2,"Houdemont Porte Sud",,48.637362,6.185148,,,0,
164,HDERB0,"Erables",,48.642402,6.182227,,,0,
1164,HDERB1,"Erables",,48.642725,6.182044,,,0,
666,HDGAR0,"Houdemont Gare",,48.644921,6.181981,,,0,
1666,HDGAR1,"Houdemont Gare",,48.645035,6.181792,,,0,
94,HDLAV0,"Houdemont Mairie",,48.645263,6.175285,,,0,
1094,HDLAV1,"Houdemont Mairie",,48.645234,6.175228,,,0,
89,HDMAJ0,"Poncel",,48.636674,6.178994,,,0,
1089,HDMAJ1,"Poncel",,48.636638,6.178857,,,0,
93,HDMAN0,"Montauban",,48.644288,6.176514,,,0,
1093,HDMAN1,"Montauban",,48.644177,6.176451,,,0,
92,HDMNC0,"Mancés",,48.642213,6.177157,,,0,
1092,HDMNC1,"Mancés",,48.641949,6.177021,,,0,
88,HDMON0,"Les Egrez",,48.638932,6.180756,,,0,
1088,HDMON1,"Les Egrez",,48.638265,6.180746,,,0,
791,HDMON2,"Houdemont Les Egrez",,48.638527,6.180448,,,0,
657,HDMUR0,"Les Mûriers",,48.650111,6.183633,,,0,
1657,HDMUR1,"Les Mûriers",,48.650008,6.183409,,,0,
95,HDRCH0,"La Ronchère",,48.650122,6.176547,,,0,
1095,HDRCH1,"La Ronchère",,48.648914,6.175946,,,0,
90,HDRUZ0,"Rouzé",,48.638585,6.177604,,,0,
1090,HDRUZ1,"Rouzé",,48.638392,6.177651,,,0,
187,HDTEN0,"Parc Embanie",,48.647499,6.196503,,,0,
1187,HDTEN1,"Parc Embanie",,48.647516,6.196558,,,0,
180,HLBSC0,"Besançon",,48.647635,6.208858,,,0,
1180,HLBSC1,"Besançon",,48.648521,6.208745,,,0,
736,HLCRO0,"Port Cros",,48.653675,6.202727,,,0,
1736,HLCRO1,"Port Cros",,48.653754,6.202546,,,0,
181,HLCRT0,"HEILLECOURT",,48.648106,6.209784,,,0,
730,HLDAM0,"Pré la Dame",,48.651609,6.207938,,,0,
1730,HLDAM1,"Pré la Dame",,48.650853,6.207948,,,0,
1189,HLECO1,"Emile Gallé",,48.652702,6.193535,,,0,
186,HLEMB0,"Chateaubriand",,48.644988,6.196704,,,0,
1186,HLEMB1,"Chateaubriand",,48.644936,6.196737,,,0,
190,HLGRU0,"Grande Rue",,48.652699,6.186376,,,0,
1190,HLGRU1,"Grande Rue",,48.652633,6.186490,,,0,
745,HLHLL0,"Route d'Heillecourt",,48.652582,6.183679,,,0,
274,HLHSS0,"Husson",,48.654833,6.199658,,,0,
183,HLHUG0,"Victor Hugo",,48.646126,6.205846,,,0,
1183,HLHUG1,"Victor Hugo",,48.646436,6.205618,,,0,
915,HLMAI0,"Heillecourt - Mairie",,48.653571,6.195777,,,0,
1915,HLMAI1,"Heillecourt - Mairie",,48.653667,6.195868,,,0,
185,HLMOR0,"Morlaix",,48.641377,6.197636,,,0,
1185,HLMOR1,"Morlaix",,48.641431,6.197710,,,0,
182,HLPLD0,"Vanoise",,48.647468,6.206299,,,0,
1182,HLPLD1,"Vanoise",,48.648119,6.206381,,,0,
516,HLRFL0,"Route de Fléville",,48.656053,6.206671,,,0,
1516,HLRFL1,"Route de Fléville",,48.655836,6.206825,,,0,
165,HLRHL0,"Route d'Heillecourt",,48.652338,6.184825,,,0,
191,HLRHL1,"Route d'Heillecourt",,48.652569,6.184448,,,0,
1165,HLRHL2,"Route d'Heillecourt",,48.652362,6.184647,,,0,
1273,HLRTN0,"La Rotonde",,48.656854,6.198914,,,0,
273,HLRTN1,"La Rotonde",,48.656958,6.198748,,,0,
188,HLTLI0,"Temps Libre",,48.650480,6.194064,,,0,
1188,HLTLI1,"Temps Libre",,48.650511,6.194158,,,0,
272,HLVSB0,"Vigne des Sables",,48.659603,6.197682,,,0,
184,HLVSL0,"Versailles",,48.644220,6.201457,,,0,
1184,HLVSL1,"Versailles",,48.644243,6.201357,,,0,
253,JRALS0,"Alsace-Bonsecours",,48.676220,6.199713,,,0,
1253,JRALS1,"Alsace-Bonsecours",,48.675227,6.200774,,,0,
201,JRCLF0,"Jarville Californie",,48.673574,6.206672,,,0,
1201,JRCLF1,"Jarville Californie",,48.673569,6.206477,,,0,
197,JRCLM0,"Clemenceau",,48.668563,6.199150,,,0,
1197,JRCLM1,"Clemenceau",,48.667777,6.198795,,,0,
531,JREGL0,"L'Atelier",,48.668893,6.207648,,,0,
1531,JREGL1,"L'Atelier",,48.668738,6.207877,,,0,
259,JREMM0,"Emmaüs",,48.659030,6.206438,,,0,
1259,JREMM1,"Emmaüs",,48.659900,6.206780,,,0,
198,JREVR0,"Evrard",,48.668024,6.201836,,,0,
1198,JREVR1,"Evrard",,48.667849,6.201992,,,0,
256,JRFNT1,"Fonteno",,48.668684,6.204867,,,0,
1256,JRFNT3,"Fonteno",,48.668928,6.204602,,,0,
277,JRGAR0,"Belle Croix",,48.672442,6.201258,,,0,
1277,JRGAR1,"Belle Croix",,48.672416,6.201387,,,0,
254,JRMAI0,"Jarville Mairie",,48.673314,6.202321,,,0,
1254,JRMAI1,"Jarville Mairie",,48.673237,6.202510,,,0,
794,JRMGG2,"La Malgrange",,48.665891,6.196825,,,0,
1794,JRMGG3,"La Malgrange",,48.666141,6.196772,,,0,
2043,JRMGG4,"La Malgrange",,48.665707,6.197004,,,0,
3043,JRMGG5,"La Malgrange",,48.674000,6.187000,,,0,
258,JRMON0,"Montaigu",,48.662971,6.207394,,,0,
1258,JRMON1,"Montaigu",,48.663709,6.207704,,,0,
257,JRMSF0,"Musée de l'Histoire du Fer",,48.665340,6.208001,,,0,
1257,JRMSF1,"Musée de l'Histoire du Fer",,48.665360,6.208104,,,0,
688,JRREP2,"Jarville République",,48.670793,6.206125,,,0,
1688,JRREP3,"Jarville République",,48.670851,6.206212,,,0,
270,JRSIO0,"Sion",,48.664643,6.198299,,,0,
278,JRSIO1,"Jarville Sion",,48.664671,6.198565,,,0,
1270,JRSIO2,"Sion",,48.664474,6.198605,,,0,
271,JRSNG0,"Léon Songeur",,48.661021,6.199587,,,0,
1271,JRSNG1,"Léon Songeur",,48.660635,6.200174,,,0,
2021,JRSNG2,"Léon Songeur",,48.660277,6.199937,,,0,
754,JRTEL0,"Tourtel",,48.670325,6.197097,,,0,
1754,JRTEL1,"Tourtel",,48.670219,6.197105,,,0,
159,LDABT0,"Albâtre",,48.614699,6.166490,,,0,
1159,LDABT1,"Albâtre",,48.614673,6.166835,,,0,
163,LDBRQ0,"Baraques de Ludres",,48.622449,6.178296,,,0,
1163,LDBRQ1,"Baraques de Ludres",,48.622505,6.178157,,,0,
152,LDCES0,"Collège Monod",,48.620946,6.167910,,,0,
1152,LDCES1,"Collège Monod",,48.620896,6.167876,,,0,
162,LDCNM0,"Ludres Cinéma",,48.619179,6.177250,,,0,
550,LDCNM1,"Pascal",,48.618280,6.177621,,,0,
1162,LDCNM2,"Ludres Cinéma",,48.617793,6.176353,,,0,
1921,LDCNM3,"Pascal",,48.618114,6.178459,,,0,
678,LDCUR0,"Curie",,48.616896,6.181057,,,0,
1939,LDCUR1,"Curie",,48.617039,6.181121,,,0,
154,LDECO0,"Ecoles",,48.620121,6.159885,,,0,
1154,LDECO1,"Ecoles",,48.620840,6.160261,,,0,
2805,LDEMO0,"Ludres J. Monod",,48.619752,6.169844,,,0,
158,LDERY0,"Eurydice",,48.615024,6.163904,,,0,
1158,LDERY1,"Eurydice",,48.614969,6.164302,,,0,
138,LDERY2,"Eurydice",,48.615030,6.163912,,,0,
157,LDFRL0,"Frères Lumière",,48.613993,6.160420,,,0,
1157,LDFRL1,"Frères Lumière",,48.614090,6.160939,,,0,
263,LDFRS0,"Dynapole",,48.610423,6.192776,,,0,
1263,LDFRS1,"Dynapole",,48.610365,6.192808,,,0,
151,LDGAR0,"Ludres Gare",,48.622211,6.170756,,,0,
1151,LDGAR1,"Ludres Gare",,48.621828,6.170339,,,0,
801,LDGEN0,"Genobois",,48.617928,6.165799,,,0,
1901,LDGEN1,"Genobois",,48.617960,6.165861,,,0,
153,LDMAI0,"Ludres Mairie",,48.621480,6.161478,,,0,
1153,LDMAI1,"Ludres Mairie",,48.621250,6.161877,,,0,
800,LDMAR0,"Marie Marvingt",,48.616797,6.160086,,,0,
1800,LDMAR1,"Marie Marvingt",,48.616853,6.160075,,,0,
156,LDMES0,"Messein",,48.616283,6.159461,,,0,
1156,LDMES1,"Messein",,48.616399,6.159591,,,0,
905,LDMON0,"Collège Monod",,48.620106,6.167403,,,0,
1905,LDMON1,"Collège Monod",,48.619741,6.166334,,,0,
805,LDMVT0,"Ludres Marvingt",,48.619324,6.165657,,,0,
264,LDPAP0,"Papin",,48.612447,6.191353,,,0,
1264,LDPAP1,"Papin",,48.611549,6.190756,,,0,
1936,LDPAP2,"Papin",,48.611416,6.190642,,,0,
160,LDRAV0,"Ravel",,48.612225,6.171855,,,0,
1160,LDRAV1,"Ravel",,48.612290,6.171848,,,0,
149,LDRES0,"Ludres",,48.625633,6.175492,,,0,
155,LDSRS0,"Secours",,48.619028,6.159395,,,0,
1155,LDSRS1,"Secours",,48.619159,6.159566,,,0,
150,LDVER0,"Sainte-Blaine",,48.624005,6.174234,,,0,
1150,LDVER1,"Sainte-Blaine",,48.624214,6.174964,,,0,
161,LDVVI0,"Vert Village",,48.614397,6.174793,,,0,
1161,LDVVI1,"Vert Village",,48.614262,6.174665,,,0,
556,LDZI20,"Lavoisier",,48.615683,6.182861,,,0,
555,LDZI30,"Grignard",,48.615320,6.188144,,,0,
544,LNALN1,"Les Aulnois",,48.653328,6.226214,,,0,
535,LNCRT0,"Cartonneries",,48.658693,6.224527,,,0,
1535,LNCRT1,"Cartonneries",,48.659124,6.225447,,,0,
690,LNCTR0,"Laneuveville Centre",,48.659219,6.230079,,,0,
537,LNECS0,"Laneuveville Piscine",,48.659154,6.227750,,,0,
1537,LNECS1,"Laneuveville Piscine",,48.659256,6.227680,,,0,
742,LNERY0,"Robert Damery",,48.658839,6.216021,,,0,
1742,LNERY1,"Robert Damery",,48.658792,6.216038,,,0,
689,LNFAU0,"Gabriel Fauré",,48.666442,6.213346,,,0,
1689,LNFAU1,"Gabriel Fauré",,48.666440,6.213611,,,0,
517,LNFLO0,"Flaubert",,48.657248,6.217835,,,0,
1517,LNFLO1,"Flaubert",,48.657319,6.217946,,,0,
518,LNFON0,"5 Fontaines",,48.656285,6.221711,,,0,
1518,LNFON1,"5 Fontaines",,48.656232,6.221651,,,0,
662,LNGAR0,"Laneuveville Gare",,48.655418,6.227858,,,0,
533,LNGLT0,"Château de Montaigu",,48.665386,6.216355,,,0,
1533,LNGLT1,"Château de Montaigu",,48.665071,6.217058,,,0,
541,LNGRD0,"Gérardcourt",,48.649268,6.232616,,,0,
1541,LNGRD1,"Gérardcourt",,48.649229,6.232397,,,0,
542,LNHTM0,"Huit Mai",,48.650716,6.229197,,,0,
1542,LNHTM1,"Huit Mai",,48.650347,6.229629,,,0,
539,LNLEC0,"Leclerc",,48.654401,6.232383,,,0,
1539,LNLEC1,"Leclerc",,48.654785,6.232323,,,0,
538,LNMAI0,"Laneuveville Mairie",,48.656448,6.231142,,,0,
1538,LNMAI1,"Laneuveville Mairie",,48.656616,6.231115,,,0,
732,LNMON0,"Collège Montaigu",,48.657685,6.209655,,,0,
1732,LNMON1,"Collège Montaigu",,48.657653,6.210066,,,0,
2814,LNMTG0,"Heillecourt Montaigu",,48.657437,6.208698,,,0,
748,LNSAB0,"Sablonnière",,48.654314,6.225215,,,0,
540,LNTRA0,"Transformateur",,48.652883,6.233347,,,0,
1540,LNTRA1,"Transformateur",,48.652894,6.233385,,,0,
534,LNVAL0,"Sainte-Valdrée",,48.661473,6.222202,,,0,
1534,LNVAL1,"Sainte-Valdrée",,48.661465,6.222385,,,0,
225,LXANN0,"Domaine Sainte-Anne",,48.684722,6.156226,,,0,
1225,LXANN1,"Domaine Sainte-Anne",,48.684797,6.154517,,,0,
68,LXCCL0,"Croix Saint-Claude",,48.689327,6.131943,,,0,
77,LXCCL1,"Observatoire",,48.689486,6.135315,,,0,
1068,LXCCL2,"Croix Saint-Claude",,48.689128,6.133442,,,0,
1077,LXCCL3,"Observatoire",,48.689321,6.135120,,,0,
76,LXCLB0,"Laxou Champ-le-Boeuf",,48.698110,6.123671,,,0,
465,LXCLB1,"Laxou Champ-le-boeuf",,48.698138,6.122458,,,0,
450,LXDDL0,"Didelot",,48.683275,6.143510,,,0,
1450,LXDDL1,"Didelot",,48.683286,6.143415,,,0,
64,LXERP0,"Europe",,48.680052,6.151273,,,0,
1064,LXERP1,"Europe",,48.680147,6.151738,,,0,
63,LXFCH1,"Foch",,48.678099,6.155572,,,0,
1063,LXFCH2,"Foch",,48.678377,6.155439,,,0,
497,LXGID0,"Charles Gide",,48.681236,6.144083,,,0,
1497,LXGID1,"Charles Gide",,48.681038,6.143851,,,0,
620,LXHAU0,"Ecole",,48.683309,6.155100,,,0,
1620,LXHAU1,"Ecole",,48.682303,6.155859,,,0,
223,LXHRD0,"Hardeval",,48.681378,6.152603,,,0,
1223,LXHRD1,"Hardeval",,48.680935,6.152926,,,0,
1451,LXJET1,"Jet d'eau",,48.686416,6.140597,,,0,
74,LXMAD0,"Madine",,48.699182,6.127997,,,0,
1074,LXMAD1,"Madine",,48.699233,6.127923,,,0,
1655,LXMAR0,"Heubach",,48.681985,6.147753,,,0,
655,LXMAR1,"Heubach",,48.681952,6.147564,,,0,
917,LXMAR2,"Mareville",,48.678719,6.143628,,,0,
1917,LXMAR3,"Mareville",,48.678243,6.144193,,,0,
212,LXMDO0,"La Poste - Champ-le-Boeuf",,48.700256,6.133414,,,0,
1212,LXMDO1,"La Poste - Champ-le-Boeuf",,48.700844,6.133257,,,0,
72,LXMST0,"Moselotte",,48.697231,6.125084,,,0,
213,LXMTA0,"Cascade - La Fontaine",,48.698995,6.134942,,,0,
1213,LXMTA1,"Cascade - La Fontaine",,48.699113,6.135305,,,0,
1071,LXMZN0,"Vair",,48.696116,6.123673,,,0,
641,LXORN0,"Vair",,48.696096,6.122799,,,0,
438,LXOUZ0,"Laxou Plateau de Haye",,48.697700,6.120217,,,0,
1438,LXOUZ1,"Laxou Plateau de haye",,48.697704,6.120225,,,0,
282,LXPRC0,"Parc",,48.697565,6.131930,,,0,
1282,LXPRC1,"Parc",,48.697475,6.131904,,,0,
66,LXPRO1,"Provinces",,48.679695,6.148035,,,0,
1066,LXPRO3,"Provinces",,48.679749,6.148085,,,0,
69,LXSAP0,"Laxou Sapinière",,48.690995,6.128284,,,0,
1069,LXSAP1,"Laxou Sapinière",,48.690992,6.128483,,,0,
219,LXSAP2,"Laxou Sapinière",,48.691357,6.128253,,,0,
228,LXSAR0,"Sarre",,48.695540,6.127094,,,0,
70,LXVAI0,"Vair",,48.695711,6.124376,,,0,
67,LXVAV0,"Ville d'Avray",,48.679376,6.144535,,,0,
1067,LXVAV1,"Ville d'Avray",,48.679413,6.144598,,,0,
224,LXVCT0,"Victoire",,48.684285,6.152266,,,0,
1224,LXVCT1,"Victoire",,48.683167,6.151173,,,0,
618,LXVCT4,"Victoire",,48.684404,6.152510,,,0,
1618,LXVCT5,"Victoire",,48.683509,6.151132,,,0,
79,LXVOG0,"Vologne",,48.697162,6.137698,,,0,
1284,LXVOG3,"Vologne",,48.697126,6.137613,,,0,
792,LXVZZ2,"Vezouze",,48.694963,6.131884,,,0,
1792,LXVZZ3,"Vezouze",,48.694994,6.131763,,,0,
123,LXZOL0,"Zola",,48.680977,6.157816,,,0,
1123,LXZOL1,"Zola",,48.680197,6.157704,,,0,
621,LXZOL2,"Zola",,48.681121,6.156874,,,0,
1621,LXZOL3,"Zola",,48.681235,6.156899,,,0,
491,MABLZ0,"Balzac",,48.708791,6.204010,,,0,
1491,MABLZ1,"Balzac",,48.708227,6.204122,,,0,
492,MACHP0,"Charpentier",,48.705767,6.203154,,,0,
1492,MACHP1,"Charpentier",,48.706306,6.203969,,,0,
490,MACHS0,"Chemin Stratégique",,48.710979,6.204431,,,0,
1490,MACHS1,"Chemin Stratégique",,48.710924,6.204511,,,0,
485,MACHT0,"Bas Château",,48.707874,6.215804,,,0,
1485,MACHT1,"Bas Château",,48.707881,6.215870,,,0,
487,MACMT0,"Charmettes",,48.705774,6.208809,,,0,
1487,MACMT1,"Charmettes",,48.705609,6.208664,,,0,
584,MACPS0,"Pont de pierre",,48.699628,6.216333,,,0,
1584,MACPS1,"Pont de pierre",,48.699532,6.215358,,,0,
25,MACRN0,"Washington Foch",,48.702079,6.213313,,,0,
1025,MACRN2,"Washington Foch",,48.702205,6.213365,,,0,
484,MAERB0,"Acacias",,48.710091,6.215311,,,0,
1484,MAERB1,"Acacias",,48.710029,6.215369,,,0,
1473,MAGAU1,"Place de Gaulle",,48.703480,6.205088,,,0,
489,MAHCT0,"Haie le Comte",,48.711076,6.207011,,,0,
1489,MAHCT1,"Haie le Comte",,48.711146,6.206437,,,0,
771,MAJOL0,"Jolimont",,48.711183,6.203150,,,0,
1771,MAJOL1,"Jolimont",,48.711359,6.204029,,,0,
474,MALIB0,"Libérator",,48.704232,6.201428,,,0,
1474,MALIB1,"Libérator",,48.703807,6.200412,,,0,
912,MALID0,"Lido",,48.698105,6.206543,,,0,
1912,MALID1,"Lido",,48.698148,6.206357,,,0,
24,MALIV0,"Saint-Livier",,48.700785,6.208760,,,0,
1024,MALIV2,"Saint-Livier",,48.700922,6.208919,,,0,
2040,MALRO0,"Le Royal - Jean XXIII",,48.699029,6.209932,,,0,
3040,MALRO1,"Le Royal - Jean XXIII",,48.698977,6.209980,,,0,
475,MAMAS0,"Massenet",,48.705028,6.198365,,,0,
1475,MAMAS1,"Massenet",,48.705262,6.198723,,,0,
486,MAMED0,"Saint-Médard",,48.706655,6.211871,,,0,
1486,MAMED1,"Saint-Médard",,48.706754,6.212762,,,0,
494,MAMNV0,"Jacques Cartier",,48.703074,6.195795,,,0,
1494,MAMNV1,"Jacques Cartier",,48.703001,6.196177,,,0,
582,MAMOU0,"Jean Moulin",,48.694480,6.211172,,,0,
1582,MAMOU1,"Jean Moulin",,48.694557,6.211226,,,0,
23,MAPIC0,"Gérard Barrois - Stade Marcel Picot",,48.699636,6.204578,,,0,
610,MAPIC1,"Gérard Barrois - Stade Marcel Picot",,48.699720,6.204423,,,0,
1023,MAPIC2,"Gérard Barrois - Stade Marcel Picot",,48.699674,6.204549,,,0,
1610,MAPIC3,"Gérard Barrois - Stade Marcel Picot",,48.699569,6.204572,,,0,
1913,MAPIC5,"Gérard Barrois - Stade Marcel Picot",,48.699887,6.204027,,,0,
913,MAPIC6,"Gérard Barrois - Stade Marcel Picot",,48.700011,6.204136,,,0,
495,MAPRC0,"Blaison - Parc",,48.701552,6.199812,,,0,
1495,MAPRC1,"Blaison - Parc",,48.701835,6.199214,,,0,
583,MAVAR0,"Varoquaux",,48.697327,6.215439,,,0,
1583,MAVAR1,"Varoquaux",,48.697250,6.215386,,,0,
2820,MAVAR2,"Tomblaine Groupe Scolaire",,48.695463,6.213659,,,0,
493,MLALE0,"Alexandre 1er",,48.704446,6.192361,,,0,
1493,MLALE1,"Alexandre 1er",,48.704578,6.192409,,,0,
479,MLBAR0,"Driant",,48.709307,6.187494,,,0,
1479,MLBAR1,"Barrès",,48.707449,6.188430,,,0,
804,MLBOU0,"Le Bourgarel",,48.723227,6.176640,,,0,
1904,MLBOU1,"Le Bourgarel",,48.723586,6.176469,,,0,
1708,MLCAR1,"Sadi Carnot",,48.707050,6.185272,,,0,
360,MLCMS0,"Croix de Mission",,48.715626,6.184956,,,0,
1360,MLCMS1,"Croix de Mission",,48.714939,6.184619,,,0,
1362,MLECO0,"Ecole Paul Bert",,48.710785,6.184390,,,0,
363,MLEGL0,"Malzéville - Eglise",,48.711757,6.186623,,,0,
1478,MLEPA0,"Ecole Pasteur",,48.707484,6.191047,,,0,
478,MLEPA1,"Ecole Pasteur",,48.707429,6.191053,,,0,
769,MLJER0,"Jéricho",,48.707013,6.189604,,,0,
1769,MLJER1,"Jéricho",,48.706566,6.189831,,,0,
770,MLLIB0,"Libremont",,48.710109,6.197750,,,0,
1770,MLLIB1,"Libremont",,48.710118,6.197528,,,0,
352,MLLIO0,"Douëra",,48.709757,6.180355,,,0,
1352,MLLIO1,"Douëra",,48.709188,6.180849,,,0,
778,MLLIO2,"Lion d'Or",,48.708899,6.181739,,,0,
1778,MLLIO3,"Lion d'Or",,48.708882,6.181624,,,0,
358,MLLNG0,"Longefond",,48.721975,6.181163,,,0,
1358,MLLNG1,"Longefond",,48.721214,6.181436,,,0,
680,MLMAI0,"Malzéville Mairie",,48.708604,6.183182,,,0,
1680,MLMAI1,"Malzéville Mairie",,48.708462,6.182986,,,0,
803,MLMAR0,"Malzéville Margeville",,48.719457,6.177155,,,0,
477,MLNID0,"Le Nid",,48.705068,6.194628,,,0,
1477,MLNID1,"Le Nid",,48.705011,6.194300,,,0,
1365,MLORM1,"Orme",,48.707942,6.184740,,,0,
1476,MLPIN0,"Pinsons",,48.706638,6.197734,,,0,
1361,MLPSS0,"Passerelle",,48.712727,6.184353,,,0,
359,MLPVL0,"Pavillon",,48.718453,6.183199,,,0,
1359,MLPVL1,"Pavillon",,48.718841,6.182926,,,0,
355,MLPXR0,"Malzéville Pixerécourt",,48.731698,6.182227,,,0,
354,MLSAV0,"Malzéville Savlons",,48.713799,6.181546,,,0,
353,MLSTD0,"Malzéville Stade",,48.712165,6.178767,,,0,
1353,MLSTD1,"Malzéville Stade",,48.713823,6.176877,,,0,
357,MLVER0,"Verlaine",,48.723754,6.180961,,,0,
1357,MLVER1,"Verlaine",,48.724409,6.181143,,,0,
2824,MLVER2,"Malzéville Paul Verlaine",,48.723741,6.180512,,,0,
1314,MLZVI2,"Malzéville",,48.725286,6.181037,,,0,
802,MXAME0,"Améthyste",,48.714695,6.167242,,,0,
1902,MXAME1,"Améthyste",,48.714633,6.167169,,,0,
635,MXAUL0,"Les Aulnes",,48.705499,6.156055,,,0,
1635,MXAUL1,"Les Aulnes",,48.705717,6.155708,,,0,
233,MXCRB0,"Courbet",,48.712732,6.167707,,,0,
753,MXDAR0,"Stade Darnys",,48.706307,6.148934,,,0,
1753,MXDAR1,"Stade Darnys",,48.706197,6.148917,,,0,
348,MXDVL0,"Deville",,48.707607,6.172218,,,0,
1348,MXDVL1,"Deville",,48.707992,6.171976,,,0,
1996,MXECO0,"Maxeville EcoParc",,48.704986,6.132619,,,0,
1997,MXECO1,"Maxeville EcoParc",,48.705081,6.133095,,,0,
786,MXENO0,"Cuénot",,48.705660,6.135914,,,0,
1786,MXENO1,"Cuénot",,48.705603,6.135910,,,0,
280,MXEXU0,"Saint-Exupéry",,48.699954,6.130213,,,0,
1280,MXEXU1,"Saint-Exupéry",,48.699972,6.130580,,,0,
1656,MXGMB0,"Gambetta",,48.712593,6.166864,,,0,
764,MXITH0,"Zénith",,48.709235,6.148873,,,0,
1764,MXITH1,"Zénith",,48.709143,6.148847,,,0,
604,MXJAC0,"Nancy Pôle de santé",,48.703597,6.142036,,,0,
1604,MXJAC1,"Nancy Pôle de santé",,48.703511,6.141903,,,0,
682,MXJAQ0,"Saint-Jacques II",,48.702469,6.130807,,,0,
1682,MXJAQ1,"Saint-Jacques II",,48.702597,6.130694,,,0,
231,MXJUT0,"André Vautrin",,48.713637,6.164172,,,0,
1230,MXMAI1,"Maxéville Mairie",,48.712768,6.161713,,,0,
766,MXMAI2,"Maxéville Mairie",,48.712840,6.161704,,,0,
909,MXMAI3,"Maxéville Mairie",,48.712348,6.162608,,,0,
1909,MXMAI4,"Maxéville Mairie",,48.712254,6.162711,,,0,
350,MXMRT1,"Lafayette",,48.710251,6.172345,,,0,
1349,MXMRT2,"Lafayette",,48.710282,6.172210,,,0,
683,MXPAT0,"Montée de Pinchard",,48.707779,6.162157,,,0,
1683,MXPAT1,"Montée de Pinchard",,48.706970,6.161339,,,0,
910,MXRIP0,"Bon Repos",,48.709600,6.162078,,,0,
1910,MXRIP1,"Bon Repos",,48.710591,6.162128,,,0,
765,MXRNY0,"Cheverny",,48.713332,6.157093,,,0,
1765,MXRNY1,"Cheverny",,48.713309,6.157803,,,0,
796,MXSOL0,"Solvay",,48.717035,6.166621,,,0,
1796,MXSOL1,"Solvay",,48.717073,6.165897,,,0,
216,NYACL0,"Alix Le Clerc",,48.701369,6.164149,,,0,
1216,NYACL1,"Alix Le Clerc",,48.701953,6.164078,,,0,
767,NYALX0,"Place des Justes",,48.685980,6.181242,,,0,
1767,NYALX1,"Place des Justes",,48.685904,6.181225,,,0,
240,NYAME0,"Amerval",,48.692985,6.180796,,,0,
1240,NYAME1,"Amerval",,48.693102,6.180785,,,0,
285,NYANN0,"Beauregard Saint-Anne",,48.693220,6.140274,,,0,
1285,NYANN1,"Beauregard Saint-Anne",,48.693269,6.140201,,,0,
378,NYAUS0,"Austrasie",,48.687431,6.204428,,,0,
1378,NYAUS1,"Austrasie",,48.687335,6.204174,,,0,
238,NYBAR0,"Baron Louis",,48.696265,6.174568,,,0,
78,NYBAU1,"Georges de la Tour",,48.691381,6.138404,,,0,
1078,NYBAU2,"Georges de la Tour",,48.691255,6.138563,,,0,
1251,NYBCR1,"Achille Lévy",,48.677668,6.198798,,,0,
34,NYBFF0,"Boufflers",,48.693047,6.138210,,,0,
1034,NYBFF1,"Boufflers",,48.692972,6.138141,,,0,
1293,NYBIB0,"Bibliothèque",,48.692152,6.178664,,,0,
1926,NYBIS1,"Bisiaux",,48.701545,6.145342,,,0,
10,NYBLA0,"Campus ARTEM Blandan",,48.672056,6.172593,,,0,
1010,NYBLA1,"Campus ARTEM Blandan",,48.672097,6.172568,,,0,
417,NYBLA3,"Campus ARTEM Blandan",,48.672846,6.173304,,,0,
668,NYBLA5,"ARTEM",,48.672557,6.172117,,,0,
289,NYBLC0,"Chemin Blanc",,48.690374,6.156049,,,0,
1289,NYBLC1,"Chemin Blanc",,48.690506,6.155764,,,0,
217,NYBOU0,"Place Aimé Morot",,48.699303,6.165712,,,0,
1217,NYBOU1,"Place Aimé Morot",,48.699454,6.165820,,,0,
306,NYBRI0,"Brice",,48.679487,6.181901,,,0,
38,NYBUT0,"Buthegnémont",,48.696493,6.146246,,,0,
1038,NYBUT1,"Buthegnémont",,48.696585,6.146676,,,0,
302,NYCAN0,"Clinchant",,48.680342,6.184561,,,0,
1302,NYCAN1,"Clinchant",,48.678843,6.184739,,,0,
239,NYCAR0,"Place Carnot",,48.692944,6.176891,,,0,
1239,NYCAR1,"Place Carnot",,48.694108,6.177787,,,0,
19,NYCAT0,"Cathédrale",,48.691655,6.185323,,,0,
1019,NYCAT1,"Cathédrale",,48.691934,6.185915,,,0,
42,NYCAV0,"Cavallier",,48.693242,6.165368,,,0,
1042,NYCAV1,"Cavallier",,48.694231,6.165231,,,0,
83,NYCED0,"Cèdre Bleu",,48.702275,6.152065,,,0,
1083,NYCED1,"Cèdre Bleu",,48.702007,6.150938,,,0,
244,NYCH30,"Quartier Saint-Nicolas",,48.686129,6.184444,,,0,
1244,NYCH31,"Quartier Saint-Nicolas",,48.687505,6.184928,,,0,
341,NYCH50,"Charles V",,48.698584,6.175374,,,0,
1341,NYCH51,"Charles V",,48.698496,6.175223,,,0,
144,NYCHV0,"Chevert",,48.672998,6.175775,,,0,
1436,NYCIT1,"Citadelle",,48.700420,6.178818,,,0,
776,NYCIT2,"Citadelle",,48.700269,6.176679,,,0,
1954,NYCLA0,"St Nicolas",,48.688977,6.185533,,,0,
125,NYCLG0,"Charlemagne",,48.681715,6.162209,,,0,
1125,NYCLG1,"Charlemagne",,48.681610,6.161980,,,0,
296,NYCLM1,"Parc de Saurupt",,48.679246,6.180488,,,0,
1296,NYCLM3,"Parc de Saurupt",,48.679291,6.180673,,,0,
305,NYCMS0,"Cimetière de Sud",,48.677241,6.191641,,,0,
1305,NYCMS1,"Cimetière du Sud",,48.676521,6.192103,,,0,
324,NYCNM0,"Cinéma",,48.692498,6.197228,,,0,
645,NYCNM1,"Cinéma",,48.692514,6.197080,,,0,
37,NYCOL0,"Colline",,48.695850,6.141430,,,0,
1037,NYCOL1,"Colline",,48.695918,6.141374,,,0,
130,NYCOM0,"Commanderie",,48.686484,6.167817,,,0,
1130,NYCOM1,"Commanderie",,48.685562,6.166729,,,0,
243,NYCOU0,"Place Charles III - Point Central",,48.689111,6.182225,,,0,
301,NYCRE0,"Crépin",,48.677724,6.186234,,,0,
22,NYCRI0,"Cristalleries",,48.697470,6.198810,,,0,
1022,NYCRI1,"Cristalleries",,48.697526,6.198725,,,0,
1032,NYCRI2,"Cristalleries",,48.697431,6.198921,,,0,
32,NYCRI3,"Cristalleries",,48.697730,6.198826,,,0,
1371,NYCTH1,"Sainte-Catherine",,48.694920,6.189996,,,0,
41,NYCUV0,"Cité Universitaire",,48.696220,6.162491,,,0,
1041,NYCUV1,"Cité Universitaire",,48.696310,6.162468,,,0,
20,NYDFE0,"Division de Fer",,48.693135,6.190400,,,0,
1020,NYDFE2,"Division de Fer",,48.693118,6.190563,,,0,
1372,NYDFE3,"Division de Fer",,48.692606,6.190127,,,0,
442,NYDUC0,"Musée Lorrain",,48.697084,6.179298,,,0,
336,NYDUP0,"Dupont des Loges",,48.682737,6.169206,,,0,
1347,NYDUS0,"Dusaulx",,48.704868,6.174162,,,0,
1346,NYECO1,"MJC 3 Maisons",,48.705864,6.175858,,,0,
441,NYEPV0,"Saint-Epvre",,48.695201,6.179647,,,0,
11,NYEXE0,"Exelmans",,48.675301,6.176208,,,0,
1011,NYEXE1,"Exelmans",,48.675323,6.176141,,,0,
431,NYEXE2,"Exelmans",,48.675195,6.175895,,,0,
62,NYFAC0,"Faculté de Droit",,48.693102,6.175401,,,0,
127,NYFAI0,"Faïencerie",,48.690327,6.184310,,,0,
40,NYFOC0,"La Foucotte",,48.696862,6.159205,,,0,
1040,NYFOC1,"La Foucotte",,48.696996,6.159095,,,0,
712,NYFOU0,"Charles de Foucauld",,48.702168,6.179828,,,0,
1712,NYFOU1,"Charles de Foucauld",,48.702504,6.181651,,,0,
345,NYFTE0,"Fontenoy",,48.705143,6.176430,,,0,
1345,NYFTE1,"Fontenoy",,48.704491,6.177512,,,0,
106,NYGAM0,"Gambetta",,48.692207,6.180447,,,0,
13,NYGAN0,"Garenne",,48.681139,6.178571,,,0,
1013,NYGAN1,"Garenne",,48.681135,6.178476,,,0,
16,NYGAR0,"Nancy Gare",,48.689119,6.175928,,,0,
700,NYGAR1,"Poirel",,48.690399,6.175692,,,0,
1016,NYGAR2,"Nancy Gare",,48.689179,6.175909,,,0,
1700,NYGAR5,"Nancy Gare",,48.689266,6.176036,,,0,
145,NYGEB0,"Gébhart",,48.673515,6.173674,,,0,
35,NYGEN0,"Gentilly",,48.695011,6.138903,,,0,
759,NYGEN4,"Gentilly",,48.695325,6.139427,,,0,
724,NYGHE0,"Varsovie",,48.683485,6.183892,,,0,
1724,NYGHE1,"Varsovie",,48.683519,6.183954,,,0,
295,NYGNN0,"Garenne",,48.681969,6.183699,,,0,
1295,NYGNN1,"Garenne",,48.681296,6.182784,,,0,
43,NYGOB0,"Place Godefroy de Bouillon",,48.691924,6.168277,,,0,
1043,NYGOB1,"Place Godefroy de Bouillon",,48.692717,6.166671,,,0,
1219,NYGOB2,"Place Godefroy de Bouillon",,48.692881,6.168314,,,0,
21,NYGRG0,"Saint-Georges",,48.695657,6.195330,,,0,
1021,NYGRG1,"Saint-Georges",,48.695684,6.195251,,,0,
1226,NYGRI0,"Gridel",,48.686671,6.160772,,,0,
205,NYGUI0,"Rives de Meurthe",,48.690165,6.200060,,,0,
646,NYGUI2,"Rives de Meurthe",,48.690162,6.199926,,,0,
435,NYHAU2,"Montet Octroi",,48.669334,6.169440,,,0,
1238,NYHBO0,"Haut-Bourgeois",,48.695974,6.176419,,,0,
1247,NYHOP1,"Hôpital Central - Maternité",,48.682260,6.192104,,,0,
44,NYHUG0,"Domrémy",,48.688355,6.170295,,,0,
1132,NYHUG1,"Poincaré",,48.689289,6.169308,,,0,
337,NYJAR0,"Jeanne d'Arc",,48.683128,6.171677,,,0,
1337,NYJAR2,"Jeanne d'Arc",,48.684925,6.175059,,,0,
12,NYJAU0,"Jean Jaurès",,48.678368,6.179659,,,0,
1012,NYJAU2,"Jean Jaurès",,48.679034,6.179837,,,0,
619,NYJCR0,"Joli Coeur",,48.702415,6.174478,,,0,
147,NYJUI0,"Maréchal Juin",,48.677702,6.170242,,,0,
375,NYJUL0,"Saint-Julien",,48.685981,6.191207,,,0,
1375,NYJUL1,"Saint-Julien",,48.685918,6.191187,,,0,
15,NYKEN0,"Kennedy",,48.686453,6.174775,,,0,
629,NYKEN1,"Saint-Léon",,48.688251,6.172919,,,0,
1015,NYKEN2,"Kennedy",,48.686435,6.174715,,,0,
128,NYKLB0,"Kléber",,48.684633,6.168105,,,0,
1336,NYKLB1,"Kléber",,48.683730,6.169719,,,0,
203,NYKRU0,"Krug",,48.682861,6.203075,,,0,
1203,NYKRU1,"Krug",,48.682693,6.203034,,,0,
287,NYLCO0,"La Côte",,48.691761,6.149505,,,0,
1287,NYLCO1,"La Côte",,48.691875,6.149194,,,0,
297,NYLEC0,"Oudinot",,48.676286,6.178636,,,0,
1048,NYLEO0,"Patton",,48.690770,6.171287,,,0,
1131,NYLEO1,"Saint-Léon",,48.689896,6.171262,,,0,
687,NYLEV0,"Achille Lévy",,48.678227,6.197873,,,0,
919,NYLOB2,"Lobau",,48.680832,6.198035,,,0,
1919,NYLOB3,"Lobau",,48.682050,6.197682,,,0,
376,NYLOR0,"Loritz",,48.687139,6.195607,,,0,
1376,NYLOR1,"Loritz",,48.685838,6.196872,,,0,
366,NYMAC0,"Mac Mahon",,48.704094,6.182854,,,0,
1366,NYMAC1,"Mac Mahon",,48.704379,6.182992,,,0,
1995,NYMAF0,"Manufacture",,48.696220,6.172896,,,0,
17,NYMAG0,"Maginot",,48.689224,6.177758,,,0,
1017,NYMAG1,"Maginot",,48.689232,6.177529,,,0,
288,NYMAQ0,"Marquette",,48.691072,6.152779,,,0,
1288,NYMAQ1,"Marquette",,48.691138,6.152782,,,0,
1243,NYMAR0,"Place Charles III - Point Central",,48.689555,6.183403,,,0,
248,NYMAT0,"Hôpital Central - Maternité",,48.682013,6.192214,,,0,
1047,NYMAZ0,"Tour Thiers  Gare",,48.690945,6.174797,,,0,
202,NYMBR0,"Marcel Brot",,48.679222,6.204901,,,0,
1202,NYMBR1,"Marcel Brot",,48.679294,6.204715,,,0,
2001,NYMCO2,"Rue des Ponts",,48.687888,6.182280,,,0,
14,NYMDE0,"Mon Desert",,48.684400,6.176430,,,0,
1014,NYMDE1,"Mon Desert",,48.684375,6.176339,,,0,
321,NYMED0,"Médreville",,48.685278,6.160242,,,0,
1321,NYMED1,"Médreville",,48.685775,6.157803,,,0,
660,NYMES0,"Messier",,48.689513,6.160094,,,0,
1660,NYMES1,"Messier",,48.689645,6.159699,,,0,
918,NYMOL0,"Molitor",,48.685382,6.195778,,,0,
1918,NYMOL1,"Molitor",,48.685266,6.196072,,,0,
1206,NYMOT1,"Saint-Georges",,48.695586,6.195367,,,0,
1647,NYMOT3,"Saint-Georges",,48.695578,6.193570,,,0,
601,NYMRR0,"Centre Pénitentiaire",,48.705529,6.151783,,,0,
1601,NYMRR1,"Centre Pénitentiaire",,48.705759,6.152833,,,0,
39,NYMSY0,"Saint-Mansuy",,48.697309,6.155113,,,0,
1039,NYMSY1,"Saint-Mansuy",,48.697341,6.154598,,,0,
9,NYMTO0,"Montet Octroi",,48.668385,6.168634,,,0,
1009,NYMTO1,"Montet Octroi",,48.668427,6.168541,,,0,
338,NYMUL0,"Mulhouse",,48.684398,6.178271,,,0,
1338,NYMUL1,"Mulhouse",,48.685073,6.179254,,,0,
82,NYOMB0,"Les Ombelles",,48.700914,6.147199,,,0,
1082,NYOMB1,"Les Ombelles",,48.700970,6.147163,,,0,
299,NYOUD0,"Oudinot",,48.676104,6.181921,,,0,
126,NYPAI0,"Painlevé",,48.682275,6.166216,,,0,
1126,NYPAI1,"Painlevé",,48.682067,6.164638,,,0,
1127,NYPAI2,"Painlevé",,48.682368,6.165806,,,0,
80,NYPAL0,"Palais des Sports - Gentilly",,48.699778,6.140587,,,0,
1080,NYPAL1,"Palais des Sports - Gentilly",,48.699617,6.138455,,,0,
1603,NYPAR1,"Majorelle",,48.701281,6.144253,,,0,
18,NYPCL0,"Point Central",,48.690586,6.182049,,,0,
242,NYPCL1,"Place Stanislas - Dom Calmet",,48.690992,6.180901,,,0,
1018,NYPCL2,"Point Central",,48.690949,6.182868,,,0,
71,NYPDE0,"Leopold",,48.697090,6.175880,,,0,
343,NYPIE0,"Pierson",,48.703056,6.175288,,,0,
81,NYPOL0,"Cliniques",,48.700165,6.144088,,,0,
1081,NYPOL1,"Cliniques",,48.700174,6.143476,,,0,
1949,NYPPI0,"Porte de la Craffe",,48.698316,6.178302,,,0,
775,NYPPP0,"Parc de la Pépinière",,48.700169,6.184214,,,0,
1951,NYPST0,"Place Stanislas",,48.692789,6.182954,,,0,
1133,NYPVI0,"Préville",,48.687618,6.166173,,,0,
1227,NYPVI1,"Préville",,48.688119,6.165516,,,0,
1291,NYPVI2,"Préville",,48.688462,6.166494,,,0,
466,NYQBA0,"Quai de la Bataille",,48.682088,6.185200,,,0,
738,NYQBA1,"Quai de la Bataille",,48.682038,6.185400,,,0,
46,NYREP0,"Nancy Gare",,48.688656,6.176165,,,0,
1046,NYREP1,"Nancy Gare",,48.688473,6.177089,,,0,
226,NYSAC0,"Sacré Coeur",,48.686227,6.162805,,,0,
290,NYSAN0,"Santifontaine",,48.688833,6.163311,,,0,
1290,NYSAN1,"Santifontaine",,48.689008,6.162692,,,0,
686,NYSAV0,"Vic",,48.680428,6.194745,,,0,
1686,NYSAV1,"Vic",,48.680572,6.194785,,,0,
750,NYSEB0,"Saint-Sébastien",,48.688270,6.179449,,,0,
1750,NYSEB1,"Saint-Sébastien",,48.688121,6.179637,,,0,
1974,NYSEB2,"Saint Sébastien",,48.688978,6.178812,,,0,
1658,NYSIM0,"Simon",,48.700585,6.176518,,,0,
52,NYSIM1,"Simon",,48.700849,6.176565,,,0,
146,NYSIV0,"Sivry",,48.675401,6.171940,,,0,
215,NYSOL0,"Nancy Jean Lamour",,48.703711,6.163103,,,0,
1215,NYSOL1,"Nancy Jean Lamour",,48.704886,6.162867,,,0,
633,NYSPL0,"Esplanade",,48.688156,6.200047,,,0,
1633,NYSPL1,"Esplanade",,48.688330,6.199918,,,0,
496,NYSTD0,"Stade Matter",,48.689541,6.202481,,,0,
1496,NYSTD1,"Stade Matter",,48.689723,6.202387,,,0,
677,NYSTN0,"Place Stanislas - Dom Calmet",,48.692029,6.181566,,,0,
86,NYTAM0,"Nancy Tilleul Argenté",,48.703182,6.155197,,,0,
1086,NYTAM1,"Nancy Tilleul Argenté",,48.703227,6.155088,,,0,
636,NYTAM2,"Nancy Tilleul Argenté",,48.703692,6.155431,,,0,
148,NYTHE0,"Nancy Thermal",,48.679576,6.167046,,,0,
1148,NYTHE1,"Nancy Thermal",,48.679167,6.167070,,,0,
1340,NYTIS0,"Cyfflé",,48.687158,6.182277,,,0,
298,NYVAU0,"Vaucouleurs",,48.674410,6.181333,,,0,
1298,NYVAU1,"Sainte-Colette",,48.674753,6.182792,,,0,
351,NYVAY0,"Vayringe",,48.706521,6.176997,,,0,
1351,NYVAY1,"Vayringe",,48.707345,6.177724,,,0,
218,NYVER0,"Campus Lettres",,48.695601,6.167345,,,0,
1218,NYVER1,"Campus Lettres",,48.695668,6.167507,,,0,
204,NYVIC0,"Victor",,48.686488,6.199754,,,0,
1377,NYVIC1,"Victor",,48.686358,6.201203,,,0,
1204,NYVIC3,"Victor",,48.686617,6.200708,,,0,
1303,NYVIL0,"Villard",,48.680245,6.187880,,,0,
286,NYVIR0,"Viray",,48.692522,6.145884,,,0,
1286,NYVIR1,"Viray",,48.692560,6.146008,,,0,
304,NYVLL0,"Villemin",,48.678845,6.189980,,,0,
1304,NYVLL1,"Villemin",,48.678953,6.189959,,,0,
1146,NYVOB0,"Artem Vauban",,48.673853,6.171217,,,0,
246,NYVOS0,"Place des Vosges",,48.684820,6.187650,,,0,
1245,NYVOS1,"Place des Vosges",,48.684833,6.187374,,,0,
681,NYVOS2,"Pichon",,48.683540,6.185367,,,0,
1681,NYVOS3,"Pichon",,48.684458,6.186508,,,0,
704,PLBOR0,"Blés d'Or",,48.705472,6.258989,,,0,
1704,PLBOR1,"Blés d'Or",,48.705243,6.258213,,,0,
424,PLCES0,"Collège Goncourt",,48.706141,6.260913,,,0,
1424,PLCES1,"Collège Goncourt",,48.706619,6.261407,,,0,
427,PLCHG0,"Charles de Gaulle",,48.704493,6.254640,,,0,
1427,PLCHG1,"Charles de Gaulle",,48.704379,6.254355,,,0,
425,PLFIN0,"Petite Fin",,48.708821,6.257984,,,0,
1425,PLFIN1,"Petite Fin",,48.708902,6.257430,,,0,
421,PLLBR0,"Lebrun",,48.699476,6.255211,,,0,
1421,PLLBR1,"Lebrun",,48.699677,6.255380,,,0,
740,PLREN0,"Renaissance",,48.704616,6.248886,,,0,
1740,PLREN1,"Renaissance",,48.704701,6.248934,,,0,
422,PLREP0,"Pulnoy République",,48.702046,6.257946,,,0,
1422,PLREP1,"Pulnoy République",,48.701950,6.257605,,,0,
607,PLSEM0,"Semoir",,48.709764,6.264358,,,0,
1607,PLSEM1,"Semoir",,48.709184,6.264182,,,0,
423,PLSOR0,"Sorbiers",,48.704035,6.260282,,,0,
1423,PLSOR1,"Sorbiers",,48.704054,6.260214,,,0,
789,PLVER0,"Résidences Vertes",,48.701909,6.250651,,,0,
1789,PLVER1,"Résidences Vertes",,48.701899,6.250596,,,0,
703,PLVVA0,"Vervaux",,48.697378,6.254656,,,0,
1703,PLVVA1,"Vervaux",,48.697165,6.254678,,,0,
1679,SCAGE0,"Maison de l'Amitié",,48.712800,6.262728,,,0,
411,SCBIJ0,"Les Bijoins",,48.712361,6.253729,,,0,
1411,SCBIJ1,"Les Bijoins",,48.712299,6.253781,,,0,
608,SCDNO0,"Donon",,48.714849,6.269171,,,0,
1608,SCDNO1,"Donon",,48.714740,6.269269,,,0,
401,SCEGL0,"Seichamps - Eglise",,48.716915,6.265511,,,0,
1401,SCEGL1,"Seichamps - Eglise",,48.716988,6.265372,,,0,
734,SCFLE0,"Parterres Fleuris",,48.710021,6.254066,,,0,
1734,SCFLE1,"Parterres Fleuris",,48.709582,6.254330,,,0,
403,SCGLB0,"Galibier",,48.715550,6.273911,,,0,
1403,SCGLB1,"Galibier",,48.715175,6.273657,,,0,
2037,SCHCE0,"Seichamps Ecoquartier",,48.719814,6.270926,,,0,
3037,SCHCE1,"Seichamps  Ecoquartier",,48.719794,6.270836,,,0,
404,SCHOH0,"Le Hohneck",,48.713768,6.271526,,,0,
1404,SCHOH1,"Le Hohneck",,48.713726,6.271592,,,0,
409,SCLAU0,"Saint-Laurent",,48.715101,6.259240,,,0,
1409,SCLAU1,"Saint-Laurent",,48.714993,6.259076,,,0,
751,SCMAI0,"Seichamps - Mairie",,48.714068,6.260781,,,0,
51,SCMAI1,"Seichamps - Mairie",,48.714217,6.260583,,,0,
400,SCMPS0,"Seichamps Haie Cerlin",,48.719340,6.265928,,,0,
405,SCPRA0,"Jardin Roussel",,48.712850,6.267894,,,0,
406,SCRNO0,"Renoir",,48.713102,6.266372,,,0,
410,SCROS0,"Les Rosiers",,48.713675,6.255814,,,0,
1410,SCROS1,"Les Rosiers",,48.713559,6.255758,,,0,
725,SCROU0,"Jardin Roussel",,48.711859,6.266585,,,0,
2036,SCSUR0,"Sureaux",,48.717455,6.272301,,,0,
3036,SCSUR1,"Sureaux",,48.717442,6.272245,,,0,
1407,SCVAR1,"Varinchamps",,48.711231,6.263900,,,0,
522,SLALS0,"Champagne",,48.678458,6.239190,,,0,
1522,SLALS1,"Champagne",,48.678600,6.239551,,,0,
510,SLBAR0,"La Vahotte",,48.685759,6.240540,,,0,
1510,SLBAR1,"La Vahotte",,48.685634,6.240418,,,0,
521,SLCHA0,"Saulxures Lorraine",,48.679421,6.243298,,,0,
1521,SLCHA1,"Saulxures Lorraine",,48.679421,6.242730,,,0,
512,SLEGL0,"Saulxures - Eglise",,48.689144,6.249255,,,0,
1512,SLEGL1,"Saulxures - Eglise",,48.689040,6.249246,,,0,
386,SLFOR0,"Saulxures Forêt",,48.675661,6.241713,,,0,
523,SLGPQ0,"Grands Pâquis",,48.678136,6.235538,,,0,
1523,SLGPQ1,"Grands Pâquis",,48.678185,6.235648,,,0,
513,SLJRF0,"Saulxures - Château",,48.692178,6.251172,,,0,
1513,SLJRF1,"Saulxures - Château",,48.692174,6.251288,,,0,
702,SLMAI0,"Saulxures Mairie",,48.687626,6.245205,,,0,
1702,SLMAI1,"Saulxures Mairie",,48.687642,6.245045,,,0,
2041,SLMAI2,"Saulxures Mairie",,48.687216,6.244315,,,0,
3041,SLMAI3,"Saulxures Mairie",,48.687168,6.244361,,,0,
520,SLTRI0,"Tricoterie",,48.681726,6.243823,,,0,
1520,SLTRI1,"Tricoterie",,48.681613,6.243791,,,0,
509,SLVPR0,"Vert Pré",,48.684318,6.235589,,,0,
1509,SLVPR1,"Vert Pré",,48.684240,6.235635,,,0,
385,TMBDA0,"Bois La Dame",,48.676323,6.234350,,,0,
1385,TMBDA1,"Bois La Dame",,48.676257,6.234589,,,0,
2042,TMBDA2,"Bois La Dame",,48.676538,6.235198,,,0,
3042,TMBDA3,"Bois La Dame",,48.676550,6.235092,,,0,
388,TMBDF0,"Sainte-Marguerite",,48.671990,6.227109,,,0,
1388,TMBDF1,"Sainte-Marguerite",,48.672608,6.225956,,,0,
1381,TMBRB0,"Barbusse",,48.684592,6.213328,,,0,
380,TMCNC0,"Concorde",,48.687027,6.211569,,,0,
779,TMDER0,"Tomblaine Maria Deraismes",,48.680530,6.223925,,,0,
1779,TMDER1,"Tomblaine Maria Deraismes",,48.680806,6.223507,,,0,
382,TMENS0,"Les Ensanges",,48.679986,6.216635,,,0,
1382,TMENS1,"Les Ensanges",,48.679376,6.217070,,,0,
723,TMFRA0,"Fraternité",,48.693913,6.213751,,,0,
1723,TMFRA1,"Fraternité",,48.694850,6.216047,,,0,
507,TMGAI0,"Grande Haie",,48.686732,6.217740,,,0,
1507,TMGAI1,"Grande Haie",,48.685763,6.218540,,,0,
701,TMJAU1,"Jean Jaurès",,48.692641,6.212741,,,0,
1701,TMJAU3,"Jean Jaurès",,48.693024,6.210668,,,0,
508,TMLRX0,"Leroux",,48.684082,6.229415,,,0,
1508,TMLRX1,"Leroux",,48.684137,6.228842,,,0,
1380,TMMAI0,"Tomblaine Mairie",,48.686601,6.210521,,,0,
383,TMMAR0,"Galilée",,48.676388,6.221977,,,0,
1383,TMMAR1,"Galilée",,48.675951,6.221718,,,0,
1387,TMMAR2,"Tuilerie",,48.674626,6.223368,,,0,
387,TMMAR3,"Tuilerie",,48.674513,6.223653,,,0,
780,TMMAR4,"Galilée",,48.676730,6.220596,,,0,
379,TMMRT0,"La Meurthe",,48.688318,6.208455,,,0,
1379,TMMRT1,"La Meurthe",,48.688047,6.207603,,,0,
381,TMPAX0,"La Paix",,48.684832,6.214034,,,0,
397,TMPBO0,"Porte de Bosserville",,48.675641,6.229072,,,0,
1397,TMPBO1,"Porte de Bosserville",,48.675901,6.230717,,,0,
1597,TMPBO2,"Porte de Bosserville",,48.676513,6.229079,,,0,
506,TMPOT0,"Pottier",,48.689922,6.215155,,,0,
1506,TMPOT1,"Pottier",,48.688671,6.215955,,,0,
384,TMSAL0,"Salengro",,48.676131,6.224131,,,0,
1384,TMSAL1,"Salengro",,48.676090,6.224068,,,0,
795,TMVIC0,"Victoire Daubié",,48.680133,6.226469,,,0,
1795,TMVIC1,"Victoire Daubié",,48.679922,6.226533,,,0,
467,TMVOL0,"Voltaire",,48.690651,6.210751,,,0,
1467,TMVOL1,"Voltaire",,48.691078,6.210877,,,0,
5,VAAND0,"Saint André",,48.660237,6.159491,,,0,
1005,VAAND1,"Saint André",,48.660370,6.159560,,,0,
135,VAANG0,"Amsterdam",,48.659529,6.182463,,,0,
1135,VAANG1,"Amsterdam",,48.659731,6.182719,,,0,
31,VAARC0,"Kehl",,48.660479,6.176212,,,0,
141,VABAR0,"Biancamaria",,48.669080,6.185446,,,0,
1141,VABAR1,"Biancamaria",,48.668742,6.186175,,,0,
1049,VABLG1,"Belgique",,48.666595,6.169928,,,0,
1099,VABRG3,"Bergé",,48.657424,6.171739,,,0,
1932,VABRG4,"Bergé",,48.657476,6.171535,,,0,
139,VABRH0,"Brichambeau",,48.665332,6.186701,,,0,
142,VABRI0,"Faron",,48.670737,6.181368,,,0,
307,VABRI1,"Briand",,48.672253,6.181466,,,0,
1142,VABRI2,"Faron",,48.670769,6.181114,,,0,
1307,VABRI3,"Briand",,48.672667,6.182111,,,0,
558,VABRT0,"Barthou",,48.672580,6.184859,,,0,
1558,VABRT1,"Barthou",,48.672428,6.184716,,,0,
29,VABRU0,"Bruges",,48.664777,6.168927,,,0,
7,VACAO0,"Callot",,48.666068,6.165999,,,0,
1007,VACAO1,"Callot",,48.666176,6.165984,,,0,
1,VACHU0,"Vandoeuvre CHU Brabois",,48.649497,6.146503,,,0,
1100,VACMT2,"Clair Matin",,48.658186,6.170245,,,0,
1933,VACMT4,"Clair matin",,48.658101,6.170339,,,0,
98,VACRV0,"Crévic",,48.656500,6.175648,,,0,
1098,VACRV1,"Crévic",,48.657104,6.174899,,,0,
1004,VADYR0,"Doyen Roubault",,48.657280,6.155338,,,0,
1194,VAERN0,"Européen",,48.663881,6.188856,,,0,
140,VAFAS0,"Saint-François d'Assise",,48.666916,6.188601,,,0,
193,VAFAS1,"Saint-François d'Assise",,48.666677,6.191081,,,0,
1140,VAFAS2,"Saint-François d'Assise",,48.667058,6.188707,,,0,
1193,VAFAS3,"Saint-François d'Assise",,48.668048,6.189637,,,0,
781,VAFAS4,"Saint-François d'Assise",,48.666821,6.188806,,,0,
1781,VAFAS5,"Saint-François d'Assise",,48.666990,6.188868,,,0,
2,VAFHY0,"Forêt de Haye",,48.650642,6.148398,,,0,
1002,VAFHY1,"Forêt de Haye",,48.650819,6.148171,,,0,
97,VAFON0,"Rimbaud",,48.654687,6.176446,,,0,
1097,VAFON1,"Rimbaud",,48.654562,6.176354,,,0,
768,VAFON3,"Fournier",,48.654245,6.177055,,,0,
1768,VAFON4,"Fournier",,48.654344,6.177020,,,0,
665,VAFOY0,"Foyer",,48.670130,6.187936,,,0,
1665,VAFOY1,"Foyer",,48.669977,6.187731,,,0,
638,VAFRI0,"Fribourg",,48.657915,6.176518,,,0,
1638,VAFRI1,"Fribourg",,48.657515,6.175157,,,0,
3,VAFSD0,"Faisanderie",,48.654135,6.152641,,,0,
1003,VAFSD1,"Faisanderie",,48.653495,6.151803,,,0,
1139,VAGLL0,"Glaïeuls",,48.666340,6.186513,,,0,
168,VAGTH0,"Goethe",,48.660210,6.179724,,,0,
1168,VAGTH1,"Goethe",,48.660287,6.179564,,,0,
627,VAGTH2,"Angleterre",,48.659061,6.180875,,,0,
1627,VAGTH3,"Angleterre",,48.659177,6.180829,,,0,
136,VAHAY0,"La Haye",,48.661221,6.185114,,,0,
1136,VAHAY1,"La Haye",,48.661226,6.184902,,,0,
192,VAHML0,"Haute-Malgrange",,48.661519,6.188152,,,0,
1192,VAHML1,"Haute-Malgrange",,48.660316,6.186636,,,0,
1559,VAHML2,"Place de Londres",,48.660715,6.186009,,,0,
1925,VAHML3,"Place de Londres",,48.660452,6.185587,,,0,
96,VAHPY0,"Haut de Penoy",,48.652075,6.175990,,,0,
1096,VAHPY1,"Haut de Penoy",,48.652049,6.175828,,,0,
659,VAHPY2,"Simone de Beauvoir",,48.652319,6.174508,,,0,
167,VAJAR0,"Jeanne d'Arc",,48.658369,6.178574,,,0,
664,VAJAR1,"Kehl",,48.659643,6.176525,,,0,
762,VAJAR3,"Jeanne d'Arc",,48.658892,6.177451,,,0,
137,VAJNQ0,"Jonquilles",,48.663535,6.184682,,,0,
1137,VAJNQ1,"Jonquilles",,48.662801,6.184894,,,0,
103,VALIS0,"Lisbonne",,48.661770,6.168928,,,0,
1103,VALIS1,"Lisbonne",,48.661896,6.168801,,,0,
8,VALOD0,"Vélodrome",,48.666829,6.166865,,,0,
1008,VALOD1,"Vélodrome",,48.666892,6.166842,,,0,
1052,VALOD2,"Vélodrome",,48.666357,6.167047,,,0,
53,VALOD4,"Vélodrome",,48.666071,6.166416,,,0,
1102,VAMAI1,"Hôtel de Ville",,48.659472,6.173119,,,0,
170,VAMAR0,"Vandoeuvre - Marché",,48.664761,6.172945,,,0,
310,VAMAR1,"Vandoeuvre - Marché",,48.665040,6.174736,,,0,
1310,VAMAR3,"Vandoeuvre - Marché",,48.664826,6.174783,,,0,
557,VAMRM0,"Mermoz",,48.654902,6.186063,,,0,
1557,VAMRM1,"Mermoz",,48.655845,6.185927,,,0,
1138,VAMYS0,"Myosotis",,48.664011,6.184414,,,0,
30,VANAT0,"Nations",,48.661693,6.173954,,,0,
1030,VANAT2,"Nations",,48.661988,6.173789,,,0,
309,VANOR0,"Norvège",,48.667188,6.177030,,,0,
1309,VANOR1,"Norvège",,48.666949,6.176997,,,0,
793,VAPEX2,"Parc des Expositions",,48.667072,6.192953,,,0,
1793,VAPEX3,"Parc des Expositions",,48.667211,6.192758,,,0,
6,VAREC0,"Le Reclus",,48.662468,6.161977,,,0,
1006,VAREC1,"Le Reclus",,48.662618,6.162062,,,0,
462,VAROB0,"Vandoeuvre Roberval",,48.653603,6.179781,,,0,
1462,VAROB1,"Vandoeuvre Roberval",,48.653762,6.179851,,,0,
920,VARTD0,"Rotterdam",,48.663191,6.182232,,,0,
166,VASEU0,"Sud Europe",,48.652640,6.178678,,,0,
1166,VASEU1,"Sud Europe",,48.654154,6.178426,,,0,
921,VASPN0,"Parc des sports nations",,48.661928,6.177836,,,0,
104,VATIR0,"Général Frère",,48.663092,6.168186,,,0,
1104,VATIR1,"Général Frère",,48.662990,6.168194,,,0,
143,VAWIL0,"Wilson",,48.671270,6.178261,,,0,
308,VAWIL1,"Wilson",,48.670133,6.178625,,,0,
1143,VAWIL2,"Wilson",,48.670858,6.177721,,,0,
1308,VAWIL3,"Wilson",,48.669905,6.178598,,,0,
625,VLAIR0,"Longchamp",,48.657210,6.135436,,,0,
1625,VLAIR1,"Longchamp",,48.657211,6.134602,,,0,
320,VLALB0,"Albert 1er",,48.672900,6.147736,,,0,
1320,VLALB1,"Albert 1er",,48.672931,6.147638,,,0,
1319,VLASN0,"Asnée",,48.672296,6.145062,,,0,
122,VLBDR0,"Baudricourt",,48.677752,6.158604,,,0,
1122,VLBDR2,"Baudricourt",,48.677901,6.158883,,,0,
1106,VLBER0,"Saint-Bernard",,48.657233,6.111317,,,0,
107,VLBHO0,"Bois de L'Hospice",,48.655757,6.108851,,,0,
1107,VLBHO1,"Bois de L'Hospice",,48.656090,6.108618,,,0,
1316,VLCES1,"Villers G. Chepfer",,48.665110,6.139282,,,0,
105,VLCLA0,"Villers Clairlieu",,48.658748,6.111581,,,0,
114,VLCPG0,"Camping",,48.658483,6.139150,,,0,
1114,VLCPG1,"Camping",,48.658222,6.138432,,,0,
317,VLCRR0,"Carrière",,48.668900,6.140491,,,0,
1317,VLCRR1,"Carrière",,48.668014,6.139942,,,0,
60,VLCST0,"Castelnau",,48.676730,6.154787,,,0,
1060,VLCST1,"Castelnau",,48.676616,6.154330,,,0,
115,VLCTT0,"Cottages",,48.662291,6.142228,,,0,
1115,VLCTT1,"Cottages",,48.661599,6.141727,,,0,
109,VLECO0,"Pagnol",,48.655013,6.114234,,,0,
1109,VLECO1,"Pagnol",,48.655070,6.114239,,,0,
319,VLEGL0,"Villers - Eglise",,48.669607,6.145451,,,0,
111,VLESS0,"Les Essarts",,48.657873,6.115045,,,0,
1111,VLESS2,"Les Essarts",,48.657897,6.114980,,,0,
116,VLFIA0,"Grange aux Moines",,48.667558,6.146810,,,0,
1116,VLFIA1,"Grange aux Moines",,48.667906,6.147017,,,0,
173,VLGCV0,"Grande Corvée",,48.665711,6.156367,,,0,
1173,VLGCV1,"Grande Corvée",,48.664792,6.155767,,,0,
110,VLGYM0,"Jean Savine",,48.656565,6.117270,,,0,
1110,VLGYM1,"Jean Savine",,48.656583,6.117183,,,0,
318,VLHTY0,"Haut de la Taye",,48.670282,6.142916,,,0,
55,VLJLR0,"Joseph Laurent",,48.668460,6.161733,,,0,
171,VLJLR1,"Joseph Laurent",,48.668167,6.160402,,,0,
1055,VLJLR2,"Joseph Laurent",,48.668457,6.162044,,,0,
1171,VLJLR3,"Joseph Laurent",,48.668199,6.160331,,,0,
57,VLMAI0,"Villers Mairie",,48.672227,6.154774,,,0,
1057,VLMAI1,"Villers Mairie",,48.672806,6.154018,,,0,
1318,VLMNT0,"Monument",,48.670722,6.142143,,,0,
56,VLMUL0,"Paul Muller",,48.670462,6.157701,,,0,
1056,VLMUL1,"Paul Muller",,48.670729,6.157601,,,0,
315,VLPLD0,"Pléiade",,48.663313,6.141028,,,0,
1315,VLPLD1,"Pléiade",,48.663296,6.140852,,,0,
118,VLPRV0,"Mutualité - Télécom Nancy",,48.669699,6.156610,,,0,
1118,VLPRV2,"Mutualité - Télécom Nancy",,48.669699,6.155153,,,0,
117,VLRMI0,"Remicourt",,48.669523,6.152780,,,0,
1117,VLRMI1,"Remicourt",,48.669450,6.151428,,,0,
916,VLROD0,"Rodin",,48.675160,6.150206,,,0,
1916,VLROD1,"Rodin",,48.675030,6.150146,,,0,
327,VLSAN0,"La Sance",,48.657049,6.121158,,,0,
1327,VLSAN1,"La Sance",,48.657271,6.120876,,,0,
58,VLSEB0,"Rodin",,48.675124,6.151852,,,0,
1058,VLSEB2,"Rodin",,48.675090,6.151910,,,0,
174,VLSTA0,"Villers Campus Sciences",,48.663311,6.155917,,,0,
1174,VLSTA3,"Villers Campus Sciences",,48.663482,6.155956,,,0,
112,VLSTD0,"Villers Stade",,48.656267,6.125489,,,0,
1112,VLSTD1,"Villers Stade",,48.656339,6.124985,,,0,
113,VLTEC0,"Pôle Technologique",,48.656589,6.129728,,,0,
1113,VLTEC1,"Pôle Technologique",,48.656758,6.129850,,,0,
172,VLUFR0,"UFR Staps",,48.667238,6.158271,,,0,
1172,VLUFR1,"UFR Staps",,48.667186,6.158236,,,0,
623,VLURI0,"Lycée Stanislas",,48.664020,6.152502,,,0,
1623,VLURI1,"Lycée Stanislas",,48.664060,6.152557,,,0,
108,VLVAL0,"Valtriche",,48.656375,6.112499,,,0,
1108,VLVAL1,"Valtriche",,48.656836,6.112155,,,0,
685,VLVPR0,"Laxou V. Prouvé",,48.677680,6.144265,,,0,